[
  { "store_id": "STORE001", "name": "Connaught Place Flagship", "type": "cafe", "location": { "latitude": 28.6304, "longitude": 77.2177, "address": "Inner Circle, Block A, CP", "city": "Delhi" }, "distance_from_center_km": 0.0, "amenities": ["wifi", "seating", "parking", "restroom"], "business_hours": "08:00-23:00", "current_wait_time_min": 15, "has_drive_through": false },
  { "store_id": "STORE002", "name": "Cyber Hub Social", "type": "restaurant", "location": { "latitude": 28.4950, "longitude": 77.0895, "address": "DLF Cyber City, Phase 2", "city": "Gurgaon" }, "distance_from_center_km": 25.0, "amenities": ["wifi", "seating", "alcohol", "outdoor_seating"], "business_hours": "09:00-01:00", "current_wait_time_min": 25, "has_drive_through": false },
  { "store_id": "STORE003", "name": "Khan Market Bistro", "type": "bistro", "location": { "latitude": 28.6003, "longitude": 77.2270, "address": "Middle Lane, Khan Market", "city": "Delhi" }, "distance_from_center_km": 3.5, "amenities": ["wifi", "seating"], "business_hours": "10:00-22:00", "current_wait_time_min": 20, "has_drive_through": false },
  { "store_id": "STORE004", "name": "Noida Sector 18 Kiosk", "type": "kiosk", "location": { "latitude": 28.5708, "longitude": 77.3271, "address": "Near Metro Station Gate 2", "city": "Noida" }, "distance_from_center_km": 12.0, "amenities": ["takeaway_only"], "business_hours": "08:00-22:00", "current_wait_time_min": 5, "has_drive_through": false },
  { "store_id": "STORE005", "name": "Saket Select City", "type": "cafe", "location": { "latitude": 28.5285, "longitude": 77.2193, "address": "Ground Floor, Select Citywalk", "city": "Delhi" }, "distance_from_center_km": 11.0, "amenities": ["wifi", "seating", "wheelchair_accessible"], "business_hours": "10:00-23:00", "current_wait_time_min": 10, "has_drive_through": false },
  { "store_id": "STORE006", "name": "Dwarka Sector 21", "type": "cafe", "location": { "latitude": 28.5524, "longitude": 77.0583, "address": "Pacific D21 Mall", "city": "Delhi" }, "distance_from_center_km": 18.0, "amenities": ["wifi", "parking"], "business_hours": "10:00-22:00", "current_wait_time_min": 8, "has_drive_through": true },
  { "store_id": "STORE007", "name": "Vasant Kunj Promenade", "type": "cafe", "location": { "latitude": 28.5425, "longitude": 77.1557, "address": "DLF Promenade Mall", "city": "Delhi" }, "distance_from_center_km": 14.0, "amenities": ["wifi", "seating", "power_outlets"], "business_hours": "11:00-23:00", "current_wait_time_min": 12, "has_drive_through": false },
  { "store_id": "STORE008", "name": "Hauz Khas Village", "type": "bistro", "location": { "latitude": 28.5534, "longitude": 77.1944, "address": "Hauz Khas Fort Road", "city": "Delhi" }, "distance_from_center_km": 9.0, "amenities": ["wifi", "outdoor_seating", "pet_friendly"], "business_hours": "11:00-23:00", "current_wait_time_min": 30, "has_drive_through": false },
  { "store_id": "STORE009", "name": "Greater Kailash II", "type": "cafe", "location": { "latitude": 28.5273, "longitude": 77.2529, "address": "M-Block Market, GK-2", "city": "Delhi" }, "distance_from_center_km": 10.0, "amenities": ["wifi", "seating", "parking"], "business_hours": "09:00-22:00", "current_wait_time_min": 10, "has_drive_through": false },
  { "store_id": "STORE010", "name": "Aerocity Drive-Thru", "type": "cafe", "location": { "latitude": 28.5510, "longitude": 77.1212, "address": "Worldmark 1, Aerocity", "city": "Delhi" }, "distance_from_center_km": 15.0, "amenities": ["wifi", "seating", "parking", "24_hours"], "business_hours": "00:00-23:59", "current_wait_time_min": 5, "has_drive_through": true },
  { "store_id": "STORE011", "name": "Kamla Nagar North", "type": "cafe", "location": { "latitude": 28.6806, "longitude": 77.2058, "address": "Bungalow Road", "city": "Delhi" }, "distance_from_center_km": 6.0, "amenities": ["wifi", "student_discount"], "business_hours": "09:00-22:00", "current_wait_time_min": 15, "has_drive_through": false },
  { "store_id": "STORE012", "name": "Laxmi Nagar Hub", "type": "kiosk", "location": { "latitude": 28.6305, "longitude": 77.2773, "address": "V3S Mall, Ground Floor", "city": "Delhi" }, "distance_from_center_km": 8.0, "amenities": ["takeaway_only"], "business_hours": "10:00-22:00", "current_wait_time_min": 20, "has_drive_through": false },
  { "store_id": "STORE013", "name": "Rajouri Garden", "type": "restaurant", "location": { "latitude": 28.6496, "longitude": 77.1219, "address": "Main Market", "city": "Delhi" }, "distance_from_center_km": 11.0, "amenities": ["wifi", "seating", "family_friendly"], "business_hours": "11:00-23:00", "current_wait_time_min": 25, "has_drive_through": false },
  { "store_id": "STORE014", "name": "Netaji Subhash Place", "type": "cafe", "location": { "latitude": 28.6946, "longitude": 77.1508, "address": "Pacific Mall NSP", "city": "Delhi" }, "distance_from_center_km": 12.0, "amenities": ["wifi", "seating"], "business_hours": "10:00-22:00", "current_wait_time_min": 10, "has_drive_through": false },
  { "store_id": "STORE015", "name": "Okhla Corporate Park", "type": "kiosk", "location": { "latitude": 28.5494, "longitude": 77.2783, "address": "NSIC Estate", "city": "Delhi" }, "distance_from_center_km": 13.0, "amenities": ["takeaway_only"], "business_hours": "09:00-19:00", "current_wait_time_min": 5, "has_drive_through": false }
]